fid,ID_PUNTO,NOMBRE,TIPO,FECHA,ELEV_TERR,DEUT_2H,OXIG_18,Month,Lon,Lat,PROF_MAX,MUNICIPIO,iso_18 raster,d-excess,iso_2h raster,P/GW,P/GW 2H
1,228 I C 019,BOGOTÁ D.C. 228 I C 019,Pozo profundo,11/02/2010,2548.901081,-67,-9.88,11,-74.11013313,4.639823607,256,BOGOTÁ D.C.,-6.84762,-35.83464,-42.68227,0.693078947368421,0.637048805970149
2,227 II D 1115,BOGOTÁ D.C. 227 II D 1115,Pozo profundo,1/01/2001,2546.259527,-43.13,-10.95,1,-74.15691352,4.689520693,115,BOGOTÁ D.C.,-6.71055,-37.79079,-44.50135,0.612835616438356,1.03179573382796
3,227 IV B 561,BOGOTÁ D.C. 227 IV B 561,Pozo somero,10/31/2017,2547.413451,-74.5,-10.51,10,-74.17417952,4.600353684,90,BOGOTÁ D.C.,-13.02736,-81.79475,-94.82211,1.2395204567079,1.27278
4,227 II D 994,BOGOTÁ D.C. 227 II D 994,Pozo profundo,10/31/2017,2548.154129,-75.4,-10.64,10,-74.17253912,4.598726147,150,BOGOTÁ D.C.,-13.11544,-81.49303,-94.60847,1.23265413533835,1.25475424403183
5,227 II A 071,BOGOTÁ D.C. 227 II A 071,Pozo profundo,10/31/2017,2555.536886,-64.3,-9.18,10,-74.10878071,4.627398447,213,BOGOTÁ D.C.,-11.04527,-66.39222,-77.43749,1.20318845315904,1.20431555209953
6,246 III A 028,BOGOTÁ D.C. 246 III A 028,Pozo profundo,10/31/2017,2545.106753,-70.6,-10.08,10,-74.12887988,4.650457172,157,BOGOTÁ D.C.,-6.50662,-36.0892,-42.59583,0.645498015873016,0.603340368271955
7,pz 10 0011,BOGOTÁ D.C. pz 10 0011,Manantial,1/01/1999,3137,-69.05,-10.3,1,-74.0060226,4.798942653,0.1,BOGOTÁ D.C.,-7.82397,-44.84174,-52.66571,0.759608737864078,0.762718464880521
8,227 IV A 285,BOGOTÁ D.C. 227 IV A 285,Manantial,10/31/2017,3137,-69.05,-10.3,10,-74.0060226,4.798942653,0.1,BOGOTÁ D.C.,-7.82397,-44.84174,-52.66571,0.759608737864078,0.762718464880521
9,227 IV A 450,BOGOTÁ D.C. 227 IV A 450,Pozo profundo,10/31/2017,2555.801175,-65.5,-9.42,10,-74.06822264,4.820649668,118,BOGOTÁ D.C.,-8.47074,-50.34418,-58.81492,0.899229299363057,0.897937709923664
10,227 IV A 285,BOGOTÁ D.C. 227 IV A 285,Pozo somero,10/31/2017,2554.770875,-67.3,-9.42,10,-74.0722794,4.80898417,75,BOGOTÁ D.C.,-8.56999,-49.71413,-58.28411,0.909765392781316,0.866034323922734
11,228 I A 304,BOGOTÁ D.C. 228 I A 304,Pozo profundo,1/01/1999,2555.288177,-67,-9.48,1,-74.07209905,4.817032488,113,BOGOTÁ D.C.,-8.47074,-50.34418,-58.81492,0.893537974683544,0.877834626865672
12,227 II B 190,BOGOTÁ D.C. 227 II B 190,Pozo profundo,10/31/2017,2555.288177,-70.1,-9.77,10,-74.07209905,4.817032488,113,BOGOTÁ D.C.,-8.47074,-50.34418,-58.81492,0.867015353121801,0.83901455064194
13,pz 13 0016,BOGOTÁ D.C. pz 13 0016,Pozo somero,10/31/2017,2554.539597,-63.3,-9.55,10,-74.05226784,4.781311961,96,BOGOTÁ D.C.,-6.53033,-32.70219,-39.23252,0.683804188481675,0.619787045813586
14,246 II A 061,BOGOTÁ D.C. 246 II A 061,Pozo profundo,10/31/2017,2552.71296,-64.1,-9.57,10,-74.04947279,4.796504194,119.4,BOGOTÁ D.C.,-8.21909,-47.24262,-55.46172,0.85883908045977,0.86523744149766
15,227 II B 201,BOGOTÁ D.C. 227 II B 201,Pozo profundo,10/31/2017,2554.06256,-61.9,-9.59,10,-74.04433474,4.791801574,177,BOGOTÁ D.C.,-7.95436,-50.02508,-57.97944,0.829443169968717,0.936663004846527
16,227 II B 201,BOGOTÁ D.C. 227 II B 201,Pozo somero,10/31/2017,2683,-70,-10.11,10,-74.34059469,4.841216753,90,BOGOTÁ D.C.,-9.17422,-54.13749,-63.31171,0.907440158259149,0.904453
17,pz 01 0010,BOGOTÁ D.C. pz 01 0010,Pozo profundo,1/01/1999,2583.938079,-76.7,-10.91,1,-74.03063095,4.818658643,183,BOGOTÁ D.C.,-8.47074,-50.34418,-58.81492,0.776419798350137,0.766817731421121
18,pz 22 0078,BOGOTÁ D.C. pz 22 0078,Pozo somero,1/01/2001,2560.130953,-63.66,-10.97,1,-74.06542873,4.781990549,50,BOGOTÁ D.C.,-8.22095,-44.60161,-52.82257,0.74940291704649,0.829760760289036
19,227 II C 111,BOGOTÁ D.C. 227 II C 111,Pozo profundo,1/01/1999,2629.337521,-70.7,-9.63,1,-74.07029658,4.77055114,216,BOGOTÁ D.C.,-7.77872,-49.53811,-57.31683,0.807759086188993,0.810704809052334
20,pz 11 0096,BOGOTÁ D.C. pz 11 0096,Pozo somero,1/01/1999,2559.664424,-69.9,-9.53,1,-74.16983476,4.592758057,68,BOGOTÁ D.C.,-11.91003,-75.35709,-87.26712,1.249740818468,1.24845665236051
21,pz 01 0075,BOGOTÁ D.C. pz 01 0075,Pozo profundo,1/01/2001,2547.166635,-73.94,-11.77,1,-74.13058307,4.647915936,450,BOGOTÁ D.C.,-7.08356,-39.27521,-46.35877,0.601831775700935,0.626978225588315
22,228 I C 256,BOGOTÁ D.C. 228 I C 256,Pozo profundo,1/01/2001,2550.549776,-54.54,-11.55,1,-74.10693586,4.691839616,120,BOGOTÁ D.C.,-5.98996,-31.22993,-37.21989,0.518611255411255,0.682432893289329
23,228 I C 256,BOGOTÁ D.C. 228 I C 256,Pozo somero,1/01/2001,2555.274413,-86.52,-10.22,1,-74.05091782,4.725923105,82,BOGOTÁ D.C.,-8.12234,-43.64233,-51.76467,0.794749510763209,0.598297156726768
24,208 IV D 024,BOGOTÁ D.C. 208 IV D 024,Pozo profundo,1/01/2001,2554.962822,-66.9,-11.36,1,-74.11103361,4.623491724,192,BOGOTÁ D.C.,-11.04527,-66.39222,-77.43749,0.972294894366197,1.1575110612855
25,pz 16 0002,BOGOTÁ D.C. pz 16 0002,Pozo profundo,1/01/2001,2554.787516,-61.42,-10.36,1,-74.06308456,4.803286911,252,BOGOTÁ D.C.,-8.21909,-47.2688,-55.4879,0.793348455598456,0.903417453598176
26,pz 01 0004,BOJACÁ pz 01 0004,Pozo profundo,10/31/2017,2588,-75.5,-9.87,10,-74.34504051,4.752232265,202,BOJACÁ,-8.02118,-52.90937,-60.93055,0.812682877406282,0.807027152317881
27,227 II B 089,BOJACÁ 227 II B 089,Pozo profundo,10/31/2017,2599,-71.8,-10.02,10,-74.33971403,4.730169439,225,BOJACÁ,-8.02118,-52.90937,-60.93055,0.800516966067864,0.848614902506964
28,pz 13 0007,CajICÁ pz 13 0007,Manantial,1/01/1999,2691,-72.25,-10.235,1,-74.00744602,4.980888527,0.1,CajICÁ,-9.30023,-55.36523,-64.66547,0.90866927210552,0.895023806228374
29,pz 11 0047,CajICÁ pz 11 0047,Manantial,1/01/1999,2691,-73.2,-10.515,1,-74.00744602,4.980888527,0.1,CajICÁ,-9.30023,-55.36523,-64.66547,0.884472658107466,0.88340806010929
30,228 I C 243,CajICÁ 228 I C 243,Manantial,10/31/2017,2691,-73.2,-10.515,10,-74.00744602,4.980888527,0.1,CajICÁ,-9.30023,-55.36523,-64.66547,0.884472658107466,0.88340806010929
31,227 II A 009,CajICÁ 227 II A 009,Pozo somero,1/01/1999,2581,-70.6,-10.08,1,-74.04306682,4.908185487,93,CajICÁ,-9.17058,-52.01292,-61.18351,0.909779761904762,0.866621954674221
32,227 II A 009,CajICÁ 227 II A 009,Pozo profundo,10/31/2017,2584,-70.7,-10.09,10,-74.13736739,4.832222195,145,CajICÁ,-8.47074,-52.35927,-60.83,0.839518334985134,0.86039603960396
33,228 I C 243,CajICÁ 228 I C 243,Pozo somero,10/31/2017,2575,-69.9,-9.53,10,-74.03585501,4.892359774,82,CajICÁ,-9.39244,-54.07075,-63.46319,0.985565582371459,0.907914020028612
34,208 IV D 025,CajICÁ 208 IV D 025,Pozo somero,1/01/1999,2575,-72.4,-10.26,1,-74.03585501,4.892359774,82,CajICÁ,-9.39244,-54.07075,-63.46319,0.915442495126706,0.876563397790055
35,228 IC 252,CHÍA 228 IC 252,Aljibe,1/01/1999,2579,-58.05,-8.02,1,-74.06605805,4.88196148,8,CHÍA,-9.17058,-52.01292,-61.18351,1.143463840399,1.05397950043066
36,pz 11 0011,CHÍA pz 11 0011,Pozo somero,10/31/2017,2604,-72.9,-10.08,10,-74.07890536,4.891547194,90,CHÍA,-9.17058,-52.01292,-61.18351,0.909779761904762,0.839279972565158
37,pz 01 0058,CHOCONTÁ pz 01 0058,Manantial,1/01/1999,2650,-72.25,-10.235,1,-73.67948287,5.159004859,0.1,CHOCONTÁ,-7.76263,-39.7547,-47.51733,0.758439667806546,0.657679307958478
38,228 I C 246,CHOCONTÁ 228 I C 246,Manantial,10/31/2017,2650,-72.25,-10.235,10,-73.67948287,5.159004859,0.1,CHOCONTÁ,-7.76263,-39.7547,-47.51733,0.758439667806546,0.657679307958478
39,228 I C 246,CHOCONTÁ 228 I C 246,Manantial,1/01/1999,2678,-66.15,-9.6,1,-73.65360892,5.142078245,0.1,CHOCONTÁ,-7.06311,-35.17661,-42.23972,0.735740625,0.638544520030234
40,227 IV D 100,CHOCONTÁ 227 IV D 100,Manantial,1/01/1999,2679,-73.8,-10.19,1,-73.64882894,5.141984622,0.1,CHOCONTÁ,-7.06311,-35.17661,-42.23972,0.69314131501472,0.572353929539295
41,227 IV D 100,CHOCONTÁ 227 IV D 100,Manantial,1/01/1999,2897,-69.05,-9.89,1,-73.66484769,5.196070688,0.1,CHOCONTÁ,-7.0472,-35.43819,-42.48539,0.712558139534884,0.615284431571325
42,pz 11 0023,CHOCONTÁ pz 11 0023,Manantial,10/31/2017,2897,-69.05,-9.89,10,-73.66484769,5.196070688,0.1,CHOCONTÁ,-7.0472,-35.43819,-42.48539,0.712558139534884,0.615284431571325
43,228 I A 473,CHOCONTÁ 228 I A 473,Pozo profundo,10/31/2017,2657,-68.7,-9.32,10,-73.69257354,5.137762434,100,CHOCONTÁ,-7.76263,-39.7547,-47.51733,0.832900214592275,0.691664192139738
44,228 I A 473,COTA 228 I A 473,Pozo somero,1/01/2001,2582,-41.79,-11.48,1,-74.09463625,4.826798791,50,COTA,-8.47074,-51.06084,-59.53158,0.737869337979094,1.42454127781766
45,227 II C 557,COTA 227 II C 557,Pozo profundo,10/31/2017,2880,-72,-10.61,10,-74.13655294,4.796321357,100,COTA,-7.88103,-45.57729,-53.45832,0.742792648444863,0.742476666666667
46,227 II C 122,COTA 227 II C 122,Manantial,1/01/1999,2817,-47.8,-7.055,1,-74.11838958,4.810882005,0.1,COTA,-7.88103,-45.64217,-53.5232,1.1170843373494,1.11973221757322
47,209 III D 105,COTA 209 III D 105,Pozo profundo,10/31/2017,2574,-72.4,-10.26,10,-74.15259464,4.758429372,118,COTA,-6.45719,-33.29505,-39.75224,0.629355750487329,0.54906408839779
48,pz 08 0002,COTA pz 08 0002,Pozo profundo,1/01/1999,2571,-75.1,-10.94,1,-74.15259454,4.757525066,116,COTA,-6.45719,-33.29505,-39.75224,0.590236745886655,0.529324101198402
49,209 III D 105,COTA 209 III D 105,Pozo profundo,1/01/2001,2568,-68.08,-12.49,1,-74.13781041,4.74405235,526,COTA,-6.20914,-31.66084,-37.86998,0.497128903122498,0.55625705052879
50,228 I C 145,EL ROSAL 228 I C 145,Manantial,1/01/1999,2719,-63.3,-9.015,1,-74.23077684,4.895960733,0.1,EL ROSAL,-7.90913,-42.8419,-50.75103,0.877330005546312,0.801754028436019
51,228 I C 145,EL ROSAL 228 I C 145,Manantial,10/31/2017,2719,-63.3,-9.015,10,-74.23077684,4.895960733,0.1,EL ROSAL,-7.90913,-42.8419,-50.75103,0.877330005546312,0.801754028436019
52,227 II C 122,EL ROSAL 227 II C 122,Manantial,1/01/1999,2749,-50.55,-7.99,1,-74.24087618,4.902740591,0.1,EL ROSAL,-8.23823,-45.02488,-53.26311,1.0310675844806,1.05367181008902
53,pz 11 0153,EL ROSAL pz 11 0153,Pozo profundo,10/31/2017,2744,-67.5,-9.23,10,-74.22840689,4.901323772,197,EL ROSAL,-8.23823,-45.02488,-53.26311,0.892549295774648,0.789083111111111
54,227 IV A 421,EL ROSAL 227 IV A 421,Pozo profundo,10/31/2017,2636,-68.9,-9.88,10,-74.35156376,4.835786632,350,EL ROSAL,-8.40566,-49.13174,-57.5374,0.850775303643725,0.835085631349782
55,pz 01 0083,EL ROSAL pz 01 0083,Pozo profundo,10/31/2017,2615,-65.5,-9.28,10,-74.25880258,4.846036396,239,EL ROSAL,-9.17422,-54.24527,-63.41949,0.988601293103448,0.968236488549618
56,pz 11 0143,EL ROSAL pz 11 0143,Pozo profundo,1/01/1999,2602,-69.4,-10.35,1,-74.24167108,4.834556148,180,EL ROSAL,-8.55529,-53.36389,-61.91919,0.82659806763285,0.89220734870317
57,227 II B 169,EL ROSAL 227 II B 169,Pozo profundo,1/01/1999,2594,-70,-10.22,1,-74.26763742,4.512074474,157,EL ROSAL,-11.95205,-72.30899,-84.26104,1.16947651663405,1.20372914285714
58,pz 16 0014,EL ROSAL pz 16 0014,Aljibe,11/08/2010,2608.461771,-74.2,-10.18,11,-74.0812388,4.584290627,3,EL ROSAL,-10.68905,-61.56594,-72.25499,1.05000491159136,0.97378692722372
59,209 III D G20,EL ROSAL 209 III D G20,Pozo profundo,11/18/2010,2546.385173,-71.9,-10.16,11,-74.16476482,4.696555269,457,EL ROSAL,-5.9968,-28.86092,-34.85771,0.590236220472441,0.484808205841446
60,228 I A 420,FACATATIVÁ 228 I A 420,Pozo profundo,11/16/2010,2558.795585,-67.2,-9.92,11,-74.0293826,4.75122446,170,FACATATIVÁ,-6.2627,-31.61844,-37.88115,0.631320564516129,0.563707589285714
61,209 III B 170,FACATATIVÁ 209 III B 170,Pozo profundo,11/18/2010,2554.89619,-68.9,-10.04,11,-74.06652834,4.790093152,150,FACATATIVÁ,-7.48013,-44.56548,-52.04561,0.745032868525896,0.755378955007257
62,209 II C 051,FACATATIVÁ 209 II C 051,Pozo profundo,10/31/2017,2583.938079,-70,-10.22,10,-74.03063095,4.818658643,183,FACATATIVÁ,-8.47074,-50.34418,-58.81492,0.828839530332681,0.840213142857143
63,pz 13 0010,FACATATIVÁ pz 13 0010,Pozo somero,1/01/1999,2683,-72,-10.345,1,-74.34059469,4.841216753,90,FACATATIVÁ,-9.17422,-54.13749,-63.31171,0.88682648622523,0.879329305555556
64,227 II C 519,FACATATIVÁ 227 II C 519,Aljibe,1/01/1999,2630,-61.7,-8.68,1,-74.26998217,4.849017495,7,FACATATIVÁ,-9.16961,-54.24988,-63.41949,1.05640668202765,1.02786855753647
65,227 II C 519,FACATATIVÁ 227 II C 519,Pozo profundo,10/31/2017,2615,-66.4,-9.1,10,-74.34228917,4.79374056,198.86,FACATATIVÁ,-6.47677,-32.74468,-39.22145,0.711732967032967,0.590684487951807
66,227 II D 800,FACATATIVÁ 227 II D 800,Pozo profundo,10/31/2017,2584,-72.5,-10.6,10,-74.28376199,4.80479319,281,FACATATIVÁ,-8.47074,-50.3288,-58.79953,0.79912641509434,0.811028
67,pz 16 0003,FACATATIVÁ pz 16 0003,Pozo profundo,1/01/2001,2590,-78.5,-11.61,1,-74.33180094,4.781536529,197,FACATATIVÁ,-8.30434,-54.47109,-62.77542,0.715274763135228,0.799686878980892
68,pz 01 0009,FACATATIVÁ pz 01 0009,Manantial,1/01/1999,2728,-70.35,-10.4,1,-74.27656702,4.861947063,0.1,FACATATIVÁ,-8.29433,-46.9959,-55.29023,0.797531730769231,0.785930774697939
69,209 III D 018,FACATATIVÁ 209 III D 018,Pozo profundo,10/31/2017,2583,-74.6,-10.58,10,-74.33090235,4.764707879,359,FACATATIVÁ,-8.02118,-52.90937,-60.93055,0.758145557655955,0.816763404825737
70,227 IV B 456,FUNZA 227 IV B 456,Pozo somero,10/31/2017,2579,-68.9,-9.89,10,-73.99004842,4.941820663,90,FUNZA,-9.10073,-53.30392,-62.40466,0.92019514661274,0.90572801161103
71,228 I C 242,FUNZA 228 I C 242,Pozo profundo,10/31/2017,2571,-57.1,-8.1,10,-74.22303239,4.726722214,180,FUNZA,-7.49423,-45.5293,-53.02353,0.925213580246914,0.92860823117338
72,pz 16 0034,FUNZA pz 16 0034,Pozo somero,11/08/2010,2561.495726,-67.1,-9.88,11,-74.02851632,4.764553879,50,FUNZA,-6.34505,-32.22035,-38.5654,0.642211538461538,0.574745156482861
73,227 IV B 456,FUNZA 227 IV B 456,Pozo profundo,1/01/1999,2579,-57.1,-8.1,1,-74.22173493,4.772525501,279,FUNZA,-7.95436,-50.02508,-57.97944,0.98201975308642,1.01540175131348
74,227 IV A 449,FUNZA 227 IV A 449,Pozo profundo,11/03/2010,2554.966679,-70.6,-10.12,11,-74.14768399,4.597363521,180,FUNZA,-12.25823,-75.00889,-87.26712,1.21128754940711,1.23607818696884
75,pz 01 0101,FUNZA pz 01 0101,Pozo profundo,1/01/1999,2578,-74.3,-10.6,1,-74.17513169,4.772895433,121.5,FUNZA,-6.74748,-35.35953,-42.107,0.636554716981132,0.56671601615074
76,227 IV A 449,FUNZA 227 IV A 449,Pozo profundo,10/31/2017,2572,-72.7,-10.26,10,-74.19081366,4.756344241,471,FUNZA,-6.45719,-33.29505,-39.75224,0.629355750487329,0.546798349381018
77,227 I D 057,GACHANCIPÁ 227 I D 057,Pozo somero,1/01/2001,2585,-70.38,-11.47,1,-73.87371375,5.016218627,82,GACHANCIPÁ,-8.46539,-47.92497,-56.39035,0.73804620749782,0.801226911054277
78,pz 01 0023,GACHANCIPÁ pz 01 0023,Pozo profundo,10/31/2017,2577,-74.3,-10.6,10,-74.24850147,4.750137859,424,GACHANCIPÁ,-6.69663,-35.84874,-42.54537,0.631757547169811,0.57261601615074
79,227 I D 057,GACHANCIPÁ 227 I D 057,Pozo profundo,11/05/2010,2550.952057,-65.4,-9.36,11,-74.13612487,4.636475981,129,GACHANCIPÁ,-11.86047,-75.72857,-87.58904,1.26714423076923,1.33928195718654
80,228 I C 155,GACHANCIPÁ 228 I C 155,Pozo somero,10/31/2017,2586,-71.4,-9.85,10,-73.87281749,4.998584603,88.5,GACHANCIPÁ,-8.61089,-49.20698,-57.81786,0.874202030456853,0.809773949579832
81,228 I C 155,LA CALERA 228 I C 155,Pozo profundo,1/01/2001,2595,-33.07,-10.82,1,-73.95599509,4.781211221,135,LA CALERA,-6.74748,-35.35953,-42.107,0.623611829944547,1.27326882370729
82,209 III D 023,LA CALERA 209 III D 023,Manantial,1/01/1999,2799.014755,-51.1,-7.75,1,-74.01323766,4.762138123,0.1,LA CALERA,-7.89378,-50.44547,-58.33925,1.01855225806452,1.14166829745597
83,209 III D 023,MADRID 209 III D 023,Pozo profundo,10/31/2017,2569,-72.6,-10.72,10,-74.26291982,4.73575572,466,MADRID,-6.45719,-33.29505,-39.75224,0.602349813432836,0.547551515151515
84,227 II A 302,MADRID 227 II A 302,Pozo profundo,1/01/1999,2590,-74.2,-10.45,1,-74.26122632,4.807602968,320,MADRID,-8.67024,-52.44581,-61.11605,0.829688038277512,0.823666442048517
85,227 II D 909,MADRID 227 II D 909,Pozo profundo,10/31/2017,2592,-72.5,-10.18,10,-74.29074337,4.788965797,197,MADRID,-7.34164,-42.18979,-49.53143,0.721182711198428,0.683192137931035
86,227 II A 302,MADRID 227 II A 302,Pozo profundo,10/31/2017,2596,-70.9,-10.12,10,-74.21606347,4.809603113,150,MADRID,-8.55529,-51.34838,-59.90367,0.845384387351779,0.844903667136812
87,pz 11 0008,MADRID pz 11 0008,Pozo profundo,11/05/2010,2554.17625,-71.6,-10.15,11,-74.14420513,4.594705183,106,MADRID,-13.15559,-81.71105,-94.86665,1.29611724137931,1.3249532122905
88,208 IV D 011,MADRID 208 IV D 011,Pozo profundo,10/31/2017,2571,-75.1,-10.94,10,-74.30276564,4.752518665,140,MADRID,-5.93455,-33.55803,-39.49258,0.542463436928702,0.525866577896138
89,208 IV D 011,MADRID 208 IV D 011,Pozo profundo,1/01/1999,2573,-76.3,-10.9,1,-74.30420824,4.753693782,140,MADRID,-5.93455,-33.55803,-39.49258,0.544454128440367,0.517596068152031
90,227 IV B 577,MADRID 227 IV B 577,Pozo profundo,10/31/2017,2573.497939,-73.6,-10.75,10,-74.26693557,4.752891164,464.501,MADRID,-6.45719,-33.29505,-39.75224,0.600668837209302,0.540111956521739
91,2274V D 102,MADRID 2274V D 102,Pozo somero,10/31/2017,2585,-74.3,-10.33,10,-73.87371375,5.016218627,82,MADRID,-8.46539,-47.92497,-56.39035,0.81949564375605,0.758954912516824
92,pz 10 0022,MADRID pz 10 0022,Pozo profundo,10/31/2017,2573,-75.3,-10.99,10,-74.30736039,4.745508823,183,MADRID,-9.17644,-53.77821,-62.95465,0.834980891719745,0.836051128818061
93,227 II D 768,MADRID 227 II D 768,Pozo profundo,11/04/2010,2545.122823,-72.6,-10.57,11,-74.13247582,4.649299384,513,MADRID,-7.08356,-39.27521,-46.35877,0.670157048249764,0.638550550964187
94,pz 14 0003,MADRID pz 14 0003,Pozo somero,1/01/2001,2571,-74.16,-11.29,1,-74.26295581,4.735511549,50,MADRID,-6.45719,-33.29505,-39.75224,0.571938883968113,0.536033441208199
95,227 II B 021,MADRID 227 II B 021,Aljibe,1/01/1999,2580,-65.65,-9.365,1,-74.31620294,4.771775714,8,MADRID,-8.17847,-44.6441,-52.82257,0.873301655098772,0.804608834729627
96,pz 01 0100,MADRID pz 01 0100,Pozo profundo,1/01/2001,2576,-73.77,-10.68,1,-74.23254613,4.74656963,353,MADRID,-7.66968,-48.19505,-55.86473,0.718134831460674,0.757282499661109
97,pz 09 0041,MOSQUERA pz 09 0041,Pozo profundo,1/01/2001,2566,-69.81,-8.82,1,-74.24606012,4.718713905,500,MOSQUERA,-6.00889,-28.84882,-34.85771,0.681280045351474,0.499322589886836
98,pz 09 0044,MOSQUERA pz 09 0044,Pozo profundo,11/04/2010,2560.27409,-74.1,-10.58,11,-74.13765151,4.571293154,150.74,MOSQUERA,-12.50859,-77.63875,-90.14735,1.18228638941399,1.21656342780027
99,pz 09 0040,MOSQUERA pz 09 0040,Aljibe,1/01/1999,2570,-70.1,-9.58,1,-74.22677031,4.714015935,8,MOSQUERA,-7.03383,-41.45227,-48.4861,0.734220250521921,0.691670470756063
100,209 IV A 004,MOSQUERA 209 IV A 004,Pozo profundo,1/01/2001,2566,-75.35,-11.91,1,-74.22640798,4.705605974,581,MOSQUERA,-7.03383,-41.47964,-48.51347,0.590581863979849,0.643841672196417
101,209 IV A 004,MOSQUERA 209 IV A 004,Pozo somero,1/01/1999,2581,-72.6,-10.44,1,-74.19460345,4.779493812,80,MOSQUERA,-7.34164,-42.18979,-49.53143,0.703222222222222,0.682251101928375
102,227 I D 097,MOSQUERA 227 I D 097,Pozo profundo,10/31/2017,2561.908248,-76.7,-10.41,10,-74.23953969,4.584245132,170,MOSQUERA,-10.90707,-65.05412,-75.9612,1.0477492795389,0.990367666232073
103,227 II B 065,MOSQUERA 227 II B 065,Pozo profundo,1/01/1999,2588,-78.2,-10.77,1,-74.25963378,4.681634014,200,MOSQUERA,-7.09007,-42.62901,-49.71908,0.658316620241411,0.635793861892583
104,227 II C 993,MOSQUERA 227 II C 993,Pozo profundo,10/31/2017,2604,-75.2,-10.46,10,-74.27415812,4.632707219,220,MOSQUERA,-9.52376,-56.5163,-66.04005,0.910493307839388,0.878192154255319
105,228 I A 524,NEMOCÓN 228 I A 524,Pozo somero,10/31/2017,2593,-89,-12.66,10,-73.8901041,5.09046609,97,NEMOCÓN,-8.67769,-47.96189,-56.63957,0.685441548183254,0.636399662921348
106,pz 11 0101,NEMOCÓN pz 11 0101,Pozo profundo,1/01/2001,2605,-66.14,-10.67,1,-73.86169592,5.090818913,100,NEMOCÓN,-8.77174,-49.29301,-58.06475,0.822093720712277,0.87790671303296
107,228 I A 524,SESQUILÉ 228 I A 524,Pozo somero,10/31/2017,2583,-67.4,-9.9,10,-73.84719928,5.025704893,86,SESQUILÉ,-8.61089,-49.20698,-57.81786,0.869786868686869,0.85783175074184
108,227 II B 065,SESQUILÉ 227 II B 065,Manantial,1/01/1999,2869,-69.65,-9.815,1,-73.77288261,5.052622161,0.1,SESQUILÉ,-7.40303,-39.253,-46.65603,0.754256749872644,0.669864034458004
109,227 II C 993,SESQUILÉ 227 II C 993,Manantial,10/31/2017,2869,-69.65,-9.815,10,-73.77288261,5.052622161,0.1,SESQUILÉ,-7.40303,-39.253,-46.65603,0.754256749872644,0.669864034458004
110,227 I D 097,Villa Marina 1,Pozo profundo,1/01/1998,2571,-57.1,-8.1,1,-74.2230324,4.726767429,180,FUNZA,-7.49423,-45.5293,-53.02353,0.925213580246914,0.92860823117338
111,pz 10 0041,INGEOMINAS No 2 - TEUSAQUILLO- (SALITRE),Pozo somero,11/17/2010,2549.958795,-60.2,-9.16,11,-74.09329778,4.639100736,50,BOGOTÁ D.C.,-7.50192,-40.80321,-48.30513,0.818986899563319,0.802410797342193
112,209 II D 090,Aerolito 1,Pozo somero,1/01/1998,2602,-60.9,-9.08,1,-74.10302248,4.889738103,80,TENJO,-9.17058,-52.01292,-61.18351,1.00997577092511,1.00465533661741
113,228 I C 034,UNICENTRO - USAQUEN- (SALITRE),Pozo somero,11/16/2010,2552.400684,-61.2,-9.1,11,-74.04003978,4.700466333,86,BOGOTÁ D.C.,-5.9968,-28.86092,-34.85771,0.658989010989011,0.569570424836601
114,209 II D 090,COLEGIO DE LA ENSENANZA No 2 - SUBA- (TORCA),Pozo profundo,11/08/2010,2555.037972,-61.8,-9.04,11,-74.05252918,4.783455176,110,BOGOTÁ D.C.,-6.74748,-35.35953,-42.107,0.746402654867257,0.681343042071197
115,228 I C 034,COLEGIO TERESIANO COMPAÑIA DE SANTA TERESA DE JESUS - USAQUEN- (SALITRE),Pozo profundo,11/19/2010,2555.125235,-61.8,-9.13,11,-74.0469064,4.734405345,201.2,BOGOTÁ D.C.,-9.19684,-52.78048,-61.97732,1.00732092004381,1.00286925566343
116,aj 11 0197,Cafam Pozo 6,Pozo profundo,1/01/1998,2554.06256,-61.9,-9.59,1,-74.04433474,4.791801574,177,BOGOTÁ D.C.,-7.95436,-50.02508,-57.97944,0.829443169968717,0.936663004846527
117,227 II B 157,GASEOSAS COLOMBIANA No 4 - PUENTE ARANDA- (FUCHA),Pozo profundo,11/02/2010,2558.769417,-62.5,-9.36,11,-74.09445093,4.620110193,285,BOGOTÁ D.C.,-10.98942,-64.61342,-75.60284,1.17408333333333,1.20964544
118,246 II A 061,COUNTRY No 2 - USAQUEN- (SALITRE),Pozo profundo,11/16/2010,2556.638591,-62.6,-9.38,11,-74.03680356,4.708306504,122,BOGOTÁ D.C.,-6.70152,-32.54986,-39.25138,0.71444776119403,0.627018849840256
119,227 II B 157,parqueadero punto de plata LUIS ENRIQUE PLATA - TEUSAQUILLO- (SALITRE),Pozo somero,11/09/2010,2557.783822,-62.7,-9.4,11,-74.06933357,4.641524416,58.4,BOGOTÁ D.C.,-6.45042,-31.59928,-38.0497,0.686214893617021,0.60685326953748
120,246 II A 061,CAFAM No 1 - SUBA- (TORCA),Pozo profundo,11/02/2010,2554.017235,-63.2,-9.4,11,-74.04384801,4.790743512,177,BOGOTÁ D.C.,-7.95436,-50.02508,-57.97944,0.846208510638298,0.917396202531645
121,227 II C 200,Colegio Los Nogales,Pozo somero,1/01/1998,2554.578104,-63.3,-9.55,1,-74.056775,4.781312112,96,BOGOTÁ D.C.,-6.74748,-35.35953,-42.107,0.706542408376963,0.665197472353871
122,aj 01 0095,CARMEL CLUB No 2 - SUBA- (SALITRE),Pozo profundo,11/02/2010,2555.243881,-63.8,-9.4,11,-74.05076393,4.742942167,187,BOGOTÁ D.C.,-8.18851,-44.43518,-52.62369,0.871118085106383,0.824822727272727
123,pz 05 0003,HIJAS DE SANTA MARIA PROVIDENCIA - USAQUEN- (TORCA),Pozo profundo,11/03/2010,2566.807405,-63.8,-9.17,11,-74.02564216,4.746657439,101,BOGOTÁ D.C.,-6.19672,-31.31028,-37.50699,0.675760087241003,0.587883855799373
124,pz 11 0136,Colegio Andino,Pozo profundo,1/01/1998,2552.71296,-64.1,-9.67,1,-74.04947279,4.796504194,119.4,BOGOTÁ D.C.,-8.21909,-47.24262,-55.46172,0.849957600827301,0.86523744149766
125,209 IV A 094,Colortex,Pozo profundo,1/01/1998,2555.536886,-64.3,-9.18,1,-74.10878071,4.627398447,213,BOGOTÁ D.C.,-11.04527,-66.39222,-77.43749,1.20318845315904,1.20431555209953
126,209 IV A 094,MEALS - SUBA- (SALITRE),Pozo profundo,11/17/2010,2551.437094,-64.7,-9.56,11,-74.07744482,4.694209525,173,BOGOTÁ D.C.,-6.70152,-32.54986,-39.25138,0.700995815899582,0.606667387944358
127,227 II B 081,Hacienda El Milagro,Pozo somero,1/01/1998,2583,-64.9,-9.27,1,-73.96165352,4.902117505,70,SOPÓ,-9.39244,-54.07075,-63.46319,1.01320819848975,0.977861171032357
128,246 II A 123,Gicro 3 Catanga,Pozo somero,1/01/1998,2621,-65.2,-9.08,1,-74.2886387,4.833457985,54,FACATATIVÁ,-8.71839,-54.57372,-63.29211,0.960175110132159,0.970737883435583
129,227 II B 081,Flores Juncalito,Pozo profundo,1/01/1998,2615,-65.3,-9.28,1,-74.25880258,4.846036396,239,EL ROSAL,-9.17422,-54.24527,-63.41949,0.988601293103448,0.971201990811639
130,246 II A 123,Reaseguradora de Colo,Pozo somero,1/01/1998,2586,-65.4,-9.64,1,-73.87669735,4.990447147,70,GACHANCIPÁ,-8.46549,-48.60995,-57.07545,0.878162863070539,0.872713302752293
131,227 IV A 299,BAVARIA No 2 - KENNEDY- (FUCHA),Pozo somero,10/31/2017,2586,-65.4,-9.64,10,-73.87669735,4.990447147,70,BOGOTÁ D.C.,-8.46549,-48.60995,-57.07545,0.878162863070539,0.872713302752293
132,227 II D 800,Flores La Sabana,Pozo profundo,1/01/1998,2555.801175,-65.5,-9.42,1,-74.06822264,4.820649668,118,BOGOTÁ D.C.,-8.47074,-50.34418,-58.81492,0.899229299363057,0.897937709923664
133,228 I A 523,SUBA - EAAB - SUBA- (TORCA),Pozo profundo,11/19/2010,2557.667751,-65.6,-9.34,11,-74.07825608,4.757556289,389,BOGOTÁ D.C.,-9.17644,-53.77821,-62.95465,0.982488222698073,0.959674542682927
134,246 II B 018,SEDE SOCIAL Y DEPORTIVA No 2 BAVARIA - USAQUEN- (TORCA),Pozo somero,11/18/2010,2557.785484,-65.7,-10,11,-74.03286733,4.807789044,86.44,BOGOTÁ D.C.,-8.47074,-50.34418,-58.81492,0.847074,0.895204261796043
135,228 I A 523,CLUB LOS LAGARTOS RAQUETA,Pozo somero,11/05/2010,2544.976547,-65.8,-9.61,11,-74.08769302,4.708027284,39,BOGOTÁ D.C.,-9.09432,-53.03101,-62.12533,0.946339229968783,0.944153951367781
136,227 II C 094,Laguna Verde 11,Pozo somero,1/01/1998,2598,-65.9,-9.34,1,-74.08895783,4.885036113,40,TENJO,-9.17058,-52.01292,-61.18351,0.981860813704497,0.928429590288316
137,228 I C 257,GRASCO No 2 BODEGA 14 - PUENTE ARANDA- (FUCHA),Pozo profundo,10/28/2010,2558.314698,-65.9,-9.71,10,-74.10080431,4.612387201,190,BOGOTÁ D.C.,-10.98942,-64.61342,-75.60284,1.131763130793,1.14723581183612
138,227 II C 200,Florencia H,Pozo somero,1/01/1998,2578,-66,-9.38,1,-73.84647325,5.038816875,28,SESQUILÉ,-8.61089,-49.20698,-57.81786,0.918005330490405,0.876028181818182
139,246 II A 304,La Gloria,Pozo somero,1/01/1998,2585,-66,-9.64,1,-73.94721965,4.94552126,60,TOCANCIPÁ,-9.32259,-55.34287,-64.66547,0.967073651452282,0.979779848484848
140,227 II C 094,PARQUE SIMON BOLIVAR - TEUSAQUILLO- (SALITRE),Pozo profundo,11/05/2010,2549.481208,-66.2,-9.64,11,-74.09428068,4.661527595,216.11,BOGOTÁ D.C.,-6.32743,-34.72246,-41.04988,0.656372406639004,0.620088821752266
141,228 I C 257,Promasa 4,Pozo profundo,1/01/1998,2615,-66.4,-9.1,1,-74.34228917,4.79374056,198.86,FACATATIVÁ,-6.47677,-32.74468,-39.22145,0.711732967032967,0.590684487951807
142,228 I A 509,AUTO CENTRO SANTANA - USAQUEN- (SALITRE),Pozo somero,11/19/2010,2566.375558,-66.9,-9.92,11,-74.03542577,4.687434986,30,BOGOTÁ D.C.,-5.98996,-31.22993,-37.21989,0.603826612903226,0.556351121076233
143,228 I C 242,Santa Cruz,Pozo profundo,1/01/1998,2553.467988,-67,-9.48,1,-74.08498971,4.772902335,122,GACHANCIPÁ,-9.21892,-53.61477,-62.83369,0.972459915611814,0.937816268656716
144,227 IV A 381,Liceo Juan Ramón Jiménez,Pozo somero,1/01/1998,2586,-67,-9.72,1,-73.85540987,5.011962483,37,BOGOTÁ D.C.,-8.61089,-49.20698,-57.81786,0.885894032921811,0.862953134328358
145,246 II A 189,ASITEX LTDA No 2 - PUENTE ARANDA- (FUCHA),Pozo profundo,10/31/2017,2553.467988,-67,-9.48,10,-74.08498971,4.772902335,122,BOGOTÁ D.C.,-9.21892,-53.61477,-62.83369,0.972459915611814,0.937816268656716
146,228 I C 242,Agropecuaria San La2aro,Pozo profundo,1/01/1998,2581,-67.1,-9.5,1,-74.22173541,4.774786261,208,FUNZA,-7.95436,-50.02508,-57.97944,0.837301052631579,0.864075111773472
147,227 II D 802,LOS TRES - USAQUEN- (TORCA),Pozo profundo,10/31/2017,2581,-67.1,-9.5,10,-74.22173541,4.774786261,208,BOGOTÁ D.C.,-7.95436,-50.02508,-57.97944,0.837301052631579,0.864075111773472
148,209 III D 036,La Torre de Vigía,Pozo somero,1/01/1998,2637,-67.2,-9.7,1,-74.34781155,4.830724088,60,FACATATIVÁ,-7.92031,-45.14248,-53.06279,0.816526804123711,0.789624851190476
149,209 III C 097,UNIVERSIDAD SAN BUENAVENTURA - USAQUEN- (TORCA),Pozo somero,10/31/2017,2637,-67.2,-9.7,10,-74.34781155,4.830724088,60,BOGOTÁ D.C.,-7.92031,-45.14248,-53.06279,0.816526804123711,0.789624851190476
150,228 I A 520,Arlzona,Pozo somero,1/01/1998,2554.770875,-67.3,-9.42,1,-74.0722794,4.80898417,75,BOGOTÁ D.C.,-8.56999,-49.71413,-58.28411,0.909765392781316,0.866034323922734
151,227 II D 838,Los Pinos II,Pozo somero,1/01/1998,2583,-67.4,-9.9,1,-73.84719928,5.025704893,86,SESQUILÉ,-8.61089,-49.20698,-57.81786,0.869786868686869,0.85783175074184
152,209 III C 097,Finca Mave POZO 1,Pozo profundo,1/01/1998,2744,-67.5,-9.23,1,-74.22840689,4.901323772,197,EL ROSAL,-8.23823,-45.02488,-53.26311,0.892549295774648,0.789083111111111
153,228 I A 520,Flores Bellavista,Pozo somero,1/01/1998,2592,-67.5,-9.77,1,-74.09887442,4.86378473,35,TENJO,-9.17408,-52.00943,-61.18351,0.939005117707267,0.90642237037037
154,227 II D 838,MOBIL SUBA INVERSIONES VIACAR - SUBA- (SALITRE),Pozo somero,11/18/2010,2561.715254,-67.7,-9.66,11,-74.08452962,4.737136995,44.8,BOGOTÁ D.C.,-5.93455,-33.55803,-39.49258,0.61434265010352,0.58334682422452
155,227 IV A 450,Hiiacol 2,Pozo profundo,1/01/1998,2545.831724,-68.1,-9.8,1,-74.12076852,4.650457717,161,BOGOTÁ D.C.,-6.50662,-36.0892,-42.59583,0.663940816326531,0.625489427312775
156,227 IV D 101,AV CIUDAD DE CALI-LAVADERO BETO - ENGATIVA- (),Pozo profundo,11/17/2010,2551.666017,-68.1,-10,11,-74.09897721,4.690546745,100,BOGOTÁ D.C.,-5.98996,-31.22993,-37.21989,0.598996,0.546547577092511
157,228 I B 062,CENTRO CAR 19 - LOS MARTIRES- (FUCHA),Pozo profundo,10/28/2010,2581.947791,-68.2,-10.07,10,-74.07982404,4.6120982,140,BOGOTÁ D.C.,-10.41453,-60.32434,-70.73886,1.03421350546177,1.03722668621701
158,246 II A 136,LA AGUADORA - EAAB - USAQUEN- (TORCA),Pozo somero,11/16/2010,2669.759199,-68.4,-10.1,11,-74.02423116,4.691955764,50,BOGOTÁ D.C.,-7.30757,-44.95776,-52.26533,0.723521782178218,0.764113011695906
159,228 I A 104,PROTELA S.A - FONTIBON- (FUCHA),Pozo profundo,10/28/2010,2547.642403,-68.5,-10.06,10,-74.12074322,4.678934414,532,BOGOTÁ D.C.,-6.03381,-31.61169,-37.6455,0.599782306163022,0.549569343065693
160,pz 08 0012,MANUFACTURAS ELIOT No 2 - FONTIBON- (FUCHA),Pozo profundo,11/03/2010,2547.427942,-68.5,-9.86,11,-74.11725312,4.64194837,239,BOGOTÁ D.C.,-11.73412,-74.69147,-86.42559,1.19007302231237,1.26168744525547
161,227 IV D 101,INDEGA PANAMCO PLANTA NORTE - FONTIBON- (FUCHA),Pozo profundo,11/03/2010,2546.061082,-68.6,-10.1,11,-74.12787251,4.679132885,532,BOGOTÁ D.C.,-6.28895,-33.97074,-40.25969,0.622668316831683,0.586875947521866
162,228 I B 062,El Partíllal,Pozo profundo,1/01/1998,2657,-68.7,-9.32,1,-73.69257354,5.137762434,100,CHOCONTÁ,-7.76263,-39.7547,-47.51733,0.832900214592275,0.691664192139738
163,227 IV A 450,La Guapucha,Pozo profundo,1/01/1998,2587,-68.9,-9.63,1,-74.21948532,4.791606777,137,FACATATIVÁ,-8.19271,-52.73623,-60.92894,0.850748701973001,0.884309724238026
164,209 III A 001,Estrella del Norte,Pozo profundo,1/01/1998,2645,-68.9,-9.24,1,-74.20120311,4.885657817,175,EL ROSAL,-9.41824,-54.22149,-63.63973,1.01929004329004,0.923653555878084
165,227 II D 779,Agropuecuarta Las Vegas,Pozo profundo,1/01/1998,2636,-68.9,-9.88,1,-74.35156376,4.835786632,350,FUNZA,-8.40566,-49.13174,-57.5374,0.850775303643725,0.835085631349782
166,228 I A 104,Flores de Aposentos Ltda.,Pozo somero,1/01/1998,2579,-68.9,-9.89,1,-73.99004842,4.941820663,90,SOPÓ,-9.10073,-53.30392,-62.40466,0.92019514661274,0.90572801161103
167,228 III A 017,COLEGIO EL ROSARIO - SUBA- (TORCA),Pozo profundo,10/31/2017,2587,-68.9,-9.63,10,-74.21948532,4.791606777,137,BOGOTÁ D.C.,-8.19271,-52.73623,-60.92894,0.850748701973001,0.884309724238026
168,209 III D 172,FINCA LA JUNCA - ENGATIVA- (SALITRE),Pozo somero,11/08/2010,2541.664923,-69,-9.86,11,-74.15059809,4.716089942,80,BOGOTÁ D.C.,-5.74045,-27.18047,-32.92092,0.582195740365112,0.477114782608696
169,228 I A 104,Sapito pito - SUBA- (SALITRE),Aljibe,11/08/2010,2557.57335,-69.1,-9.94,11,-74.0857284,4.733628268,40,BOGOTÁ D.C.,-5.93455,-33.55803,-39.49258,0.59703722334004,0.571527930535456
170,227 II D 779,Flores del Potrero - El B.,Pozo profundo,1/01/1998,2553.390874,-69.2,-9.82,1,-74.23800355,4.56561673,356.7,TENJO,-11.04717,-65.15488,-76.20206,1.12496639511202,1.10118583815029
171,227 II C 578,Santa Ana - Compartir,Pozo somero,1/01/1998,2596,-69.2,-9.75,1,-74.0917074,4.874726998,71.5,SOACHA,-9.17058,-52.01292,-61.18351,0.940572307692308,0.884154768786127
172,227 II D 1127,ESCUELA UNION COLOMBIA - USAQUEN- (TORCA),Aljibe,11/08/2010,2565.758576,-69.5,-9.94,11,-74.02783114,4.76602785,8,BOGOTÁ D.C.,-6.49004,-34.38644,-40.87648,0.65292152917505,0.588150791366907
173,227 II C 576,LADRILLERA HELIOS S.A - USME- (TUNJUELO),Pozo profundo,11/17/2010,2680.307371,-69.5,-9.68,11,-74.112011,4.519938954,133,BOGOTÁ D.C.,-11.9262,-71.4766,-83.4028,1.23204545454545,1.20004028776978
174,pz 15 0001,SOCIEDAD PROMA LTDA - SUBA- (SALITRE),Pozo profundo,11/04/2010,2633.126961,-69.6,-9.86,11,-74.08310537,4.726945461,200,BOGOTÁ D.C.,-6.10865,-35.24382,-41.35247,0.619538539553753,0.594144683908046
175,209 III D 178,Mant. Termal Tabio,Manantial,1/01/1998,2627,-69.8,-9.98,1,-74.10572867,4.924644087,0.1,TABIO,-9.10073,-53.30392,-62.40466,0.911896793587174,0.894049570200573
176,209 II D 034,Sidemuña 1,Pozo profundo,1/01/1998,2586,-69.8,-9.67,1,-74.25389265,4.535960738,450,SIBATÉ,-11.93885,-72.32219,-84.26104,1.23462771458118,1.2071782234957
177,209 II D 034,Santa Isabel,Pozo somero,1/01/1998,2575,-69.9,-9.53,1,-74.03585501,4.892359774,82,CajICÁ,-9.39244,-54.07075,-63.46319,0.985565582371459,0.907914020028612
178,208 III C 090,Ecopetrol,Pozo profundo,1/01/1998,2583.938079,-70,-10.22,1,-74.03063095,4.818658643,183,FACATATIVÁ,-8.47074,-50.34418,-58.81492,0.828839530332681,0.840213142857143
179,209 III C 090,Torca 2,Pozo somero,1/01/1998,2683,-70,-10.11,1,-74.34059469,4.841216753,90,BOGOTÁ D.C.,-9.17422,-54.13749,-63.31171,0.907440158259149,0.904453
180,227 II B 261,tndumil a.r,Pozo profundo,1/01/1999,2602,-70,-10.11,1,-74.24167108,4.834556148,180,SIBATÉ,-8.55529,-53.36389,-61.91919,0.846220573689416,0.884559857142857
181,209 III D 183,Aer olea ver,Pozo profundo,1/01/1998,2555.288177,-70.1,-9.77,1,-74.07209905,4.817032488,113,BOGOTÁ D.C.,-8.47074,-50.34418,-58.81492,0.867015353121801,0.83901455064194
182,209 III D 183,El Turpial,Pozo profundo,1/01/1998,2871,-70.5,-9.77,1,-74.03052818,4.999067019,188,ZIPAQUIRÁ,-7.53908,-40.98298,-48.52206,0.771656090071648,0.688256170212766
183,227 II D 739,Colegio Campo Alegre,Pozo somero,1/01/1998,2667,-70.5,-9.92,1,-73.98915089,4.910622144,83,SOPÓ,-9.55089,-55.8305,-65.38139,0.962791330645161,0.927395602836879
184,pz 06 0005,Viveros Tirrá,Pozo profundo,1/01/1998,2653,-70.6,-9.95,1,-73.93659376,4.881042485,103,TENJO,-9.41824,-54.04494,-63.46319,0.946556783919598,0.898912039660057
185,227 II D 739,Flores de Mayo,Pozo profundo,1/01/1998,2545.106753,-70.6,-10.08,1,-74.12887988,4.650457172,157,FUNZA,-6.50662,-36.0892,-42.59583,0.645498015873016,0.603340368271955
186,208 IV D 023,Hilacol 1A,Pozo profundo,1/01/1998,2579,-70.6,-10.08,1,-74.22173493,4.772525501,279,BOGOTÁ D.C.,-7.95436,-50.02508,-57.97944,0.789123015873016,0.821238526912181
187,227 IV A 453,Los Lagos 1,Pozo somero,1/01/1998,2595,-70.6,-9.86,1,-74.24136515,4.527056245,48,SOPÓ,-11.8977,-70.93932,-82.83701,1.20666328600406,1.17332875354108
188,227 IV A 453,Calichoso Mufla,Pozo somero,1/01/1998,2591,-70.6,-9.93,1,-74.13313204,4.852931125,90,SIBATÉ,-9.1483,-54.09438,-63.24267,0.921278952668681,0.895788526912181
189,227 II C 987,GASEOSAS COLOMBIANA No 2 - KENNEDY- (TUNJUELO),Pozo profundo,10/31/2017,2653,-70.6,-9.95,10,-73.93659376,4.881042485,103,BOGOTÁ D.C.,-9.41824,-54.04494,-63.46319,0.946556783919598,0.898912039660057
190,pz 09 0007,Villa Mercedes 1,Pozo profundo,1/01/1998,2584,-70.7,-10.09,1,-74.13736739,4.832222195,145,COGUA,-8.47074,-52.35927,-60.83,0.839518334985134,0.86039603960396
191,227 II C 987,Los Nogales,Pozo somero,1/01/1998,2588,-70.7,-10.27,1,-73.94800878,5.05928212,40,TENJO,-8.46539,-47.92497,-56.39035,0.824283349561831,0.797600424328147
192,208 IV D 020,Finca Pujanza,Pozo somero,1/01/1998,2581,-70.7,-9.63,1,-74.04306682,4.908185487,93,CajICÁ,-9.17058,-52.01292,-61.18351,0.952292834890966,0.865396181046676
193,208 IV D 020,Puente Piedra,Pozo somero,1/01/1998,2584,-70.9,-9.98,1,-74.09463642,4.83385237,50,MADRID,-8.47074,-52.35927,-60.83,0.848771543086172,0.857968970380818
194,227 II D 1124,Noviciado Antiguo,Pozo profundo,1/01/1998,2595,-70.9,-10.12,1,-74.21606384,4.811411719,150,COTA,-8.55529,-51.34838,-59.90367,0.845384387351779,0.844903667136812
195,227 II C 094,LAVA CARS CIUDAD JARDIN - ANTONIO NARIÑO- (FUCHA),Pozo profundo,11/04/2010,2574.32447,-71.1,-10.53,11,-74.09537829,4.584028163,115,BOGOTÁ D.C.,-10.69425,-61.55843,-72.25269,1.01559829059829,1.01621223628692
196,227 II D 1124,Finca Manas de Astorca,Pozo somero,1/01/1998,2592,-71.2,-10.17,1,-73.87009662,5.048319917,62,SUESCA,-8.61089,-49.20698,-57.81786,0.846695181907571,0.812048595505618
197,pz 07 0020,Santa Cecilia,Pozo somero,1/01/1998,2600,-71.3,-9.84,1,-73.96866448,5.032880429,68,ZIPAQUIRÁ,-8.61089,-49.20698,-57.81786,0.875090447154471,0.810909677419355
198,209 III C 032,El Cofrecito,Pozo somero,1/01/1998,2586,-71.4,-9.85,1,-73.87281749,4.998584603,88.5,GACHANCIPÁ,-8.61089,-49.20698,-57.81786,0.874202030456853,0.809773949579832
199,209 II C 007,La Florida,Pozo profundo,1/01/1998,2608,-71.6,-10.17,1,-74.21092647,4.816567273,251,MADRID,-8.71839,-52.57705,-61.29544,0.857265486725664,0.85608156424581
200,209 III C 007,ACEGRASAS No 2 - TUNJUELITO- (TUNJUELO),Pozo profundo,10/31/2017,2608,-71.6,-10.17,10,-74.21092647,4.816567273,251,BOGOTÁ D.C.,-8.71839,-52.57705,-61.29544,0.857265486725664,0.85608156424581
201,209 II C 007,Municipio Boj acá,Pozo profundo,1/01/1998,2599,-71.8,-10.02,1,-74.33971403,4.730169439,225,BOJACÁ,-8.02118,-52.90937,-60.93055,0.800516966067864,0.848614902506964
202,227 II D 084,Flores Condor Vereda el Rosal,Pozo profundo,1/01/1998,2607,-71.9,-10.09,1,-74.26231693,4.840338354,350,EL ROSAL,-9.17422,-54.13749,-63.31171,0.909238850346878,0.880552294853964
203,227 IV B 126,HB ESTRUCTURAS METALICAS - FONTIBON- (FUCHA),Pozo profundo,10/31/2017,2607,-71.9,-10.09,10,-74.26231693,4.840338354,350,BOGOTÁ D.C.,-9.17422,-54.13749,-63.31171,0.909238850346878,0.880552294853964
204,228 I A 523,La Gioconda,Pozo profundo,1/01/1998,2880,-72,-10.61,1,-74.13655294,4.796321357,100,COTA,-7.88103,-45.57729,-53.45832,0.742792648444863,0.742476666666667
205,227 IV B 126,CONSULTECNICA - BOSA- (TUNJUELO),Pozo somero,11/05/2010,2549.125818,-72.1,-10.24,11,-74.18044582,4.62103436,64,BOGOTÁ D.C.,-13.04111,-81.77847,-94.81958,1.2735458984375,1.3151120665742
206,227 II C 403,La Bolvora,Pozo somero,1/01/1998,2587,-72.2,-10.11,1,-73.96623219,5.018230389,70,ZIPAQUIRÁ,-8.61089,-49.20698,-57.81786,0.851720079129575,0.800801385041551
207,227 II C 549,Mi Tierra 2,Pozo somero,1/01/1998,2595,-72.3,-10.23,1,-74.18359844,4.846866251,35,MADRID,-9.16961,-54.24988,-63.41949,0.896345063538612,0.877171369294606
208,246 II A 177,Siberia 2,Pozo profundo,1/01/1998,2574,-72.4,-10.26,1,-74.15259464,4.758429372,118,COTA,-6.45719,-33.29505,-39.75224,0.629355750487329,0.54906408839779
209,227 II B 262,Miramar,Pozo profundo,1/01/1998,2587,-72.5,-10.18,1,-74.28925589,4.788604539,197,MADRID,-7.34164,-42.18979,-49.53143,0.721182711198428,0.683192137931035
210,227 II C 403,Las Caicas 2,Pozo profundo,1/01/1998,2584,-72.5,-10.6,1,-74.28376199,4.80479319,281,FACATATIVÁ,-8.47074,-50.3288,-58.79953,0.79912641509434,0.811028
211,227 II C 549,Sidemuña 2,Pozo profundo,1/01/1998,2583.584295,-72.5,-10.07,1,-74.25037896,4.538710686,450,SIBATÉ,-11.93885,-70.00423,-81.94308,1.18558589870904,1.13024937931034
212,246 II A 177,La Polonia 1,Pozo profundo,1/01/1998,2587,-72.6,-10.44,1,-74.2594234,4.807603451,320,MADRID,-8.67024,-52.44581,-61.11605,0.83048275862069,0.841818870523416
213,227 II C 321,Madrid 6,Pozo profundo,1/01/1998,2571,-72.6,-10.72,1,-74.26300086,4.735448236,475,MADRID,-6.45719,-33.29505,-39.75224,0.602349813432836,0.547551515151515
214,227 IV A 233,LAFAYETTE No 1 - KENNEDY- (FUCHA),Pozo profundo,10/31/2017,2590,-72.6,-10.44,10,-74.26122632,4.807602968,320,BOGOTÁ D.C.,-8.67024,-52.44581,-61.11605,0.83048275862069,0.841818870523416
215,227 II D 733,Flores Punza 3,Pozo profundo,1/01/1998,2785,-72.7,-10.18,1,-74.21641916,4.55637015,320,FUNZA,-11.4976,-67.07643,-78.57403,1.12943025540275,1.08079821182944
216,227 IV B 554,Conalvidrios,Pozo profundo,1/01/1998,2572,-72.7,-10.26,1,-74.19081366,4.756344241,471,SOACHA,-6.45719,-33.29505,-39.75224,0.629355750487329,0.546798349381018
217,pz 08 0023,GENERAL MOTORS - TUNJUELITO- (TUNJUELO),Pozo profundo,10/31/2017,2548.370574,-72.7,-10.18,10,-74.24386398,4.578366138,320,BOGOTÁ D.C.,-10.90707,-65.05412,-75.9612,1.07142141453831,1.0448583218707
218,227 II C 321,Las Margaritas,Pozo somero,1/01/1998,2604,-72.9,-10.08,1,-74.07890536,4.891547194,90,CHÍA,-9.17058,-52.01292,-61.18351,0.909779761904762,0.839279972565158
219,227 IV A 233,El Sosiego,Pozo profundo,1/01/1998,2582,-73.3,-10.67,1,-73.94163418,4.922189204,146.5,SOPÓ,-9.41959,-55.24588,-64.66547,0.8828106841612,0.882202864938608
220,227 IV B 468,CLARA FEY No 2 - BOSA- (TUNJUELO),Pozo profundo,11/08/2010,2546.036783,-73.4,-10.37,11,-74.18408612,4.616765484,155,BOGOTÁ D.C.,-13.02736,-81.79475,-94.82211,1.25625458052073,1.29185435967302
221,246 II A 017,San Diego 2,Pozo profundo,1/01/1998,2595,-73.6,-10.22,1,-73.92331936,4.974182388,104,TOCANCIPÁ,-9.32259,-55.34287,-64.66547,0.912190802348336,0.878606929347826
222,pz 06 0008,Santa Helena,Pozo profundo,1/01/1998,2573.497939,-73.6,-10.75,1,-74.26693557,4.752891164,464.501,MADRID,-6.45719,-33.29505,-39.75224,0.600668837209302,0.540111956521739
223,227 IV B 468,FRIGORIFICO GUADALUPE - CIUDAD BOLIVAR- (TUNJUELO),Pozo profundo,11/05/2010,2552.51195,-73.8,-10.5,11,-74.15149571,4.594062403,120,BOGOTÁ D.C.,-12.25823,-75.00889,-87.26712,1.16745047619048,1.18248130081301
224,246 II A 017,NATESA - TUNJUELITO- (TUNJUELO),Pozo somero,11/02/2010,2555.354091,-73.9,-10.38,11,-74.14424042,4.58655734,90,BOGOTÁ D.C.,-12.57049,-78.02361,-90.5941,1.21102986512524,1.22590121786198
225,228 I A 313,Ramo 1,Pozo profundo,1/01/1998,2563,-74.1,-10.62,1,-74.24511261,4.714102183,500,MOSQUERA,-5.9968,-28.86092,-34.85771,0.56467043314501,0.470414439946019
226,228 I A 313,PARQUE EL TUNAL - TUNJUELITO- (TUNJUELO),Pozo profundo,10/31/2017,2566,-74.1,-10.62,10,-74.2451139,4.719482793,500,BOGOTÁ D.C.,-6.00889,-28.84882,-34.85771,0.565808851224106,0.470414439946019
227,209 III C 007,PradoGrande,Pozo profundo,1/01/1998,2602,-74.2,-10.45,1,-74.24167108,4.834556148,180,EL ROSAL,-8.55529,-53.36389,-61.91919,0.818688038277512,0.834490431266846
228,209 III C 007,LA VECINA - USME- (FUCHA),Pozo profundo,10/31/2017,2602,-74.2,-10.45,10,-74.24167108,4.834556148,180,BOGOTÁ D.C.,-8.55529,-53.36389,-61.91919,0.818688038277512,0.834490431266846
229,228 I B 031,Agromonte,Pozo profundo,1/01/1998,2577,-74.3,-10.6,1,-74.24850149,4.750183074,424,GACHANCIPÁ,-6.69663,-35.84874,-42.54537,0.631757547169811,0.57261601615074
230,228 I B 031,Finca Alasita UanaUhj,Pozo somero,1/01/1998,2585,-74.3,-10.33,1,-73.87371375,5.016218627,82,MADRID,-8.46539,-47.92497,-56.39035,0.81949564375605,0.758954912516824
231,pz 07 0017,Manantial El Ratón,Manantial,1/01/1998,2811,-74.5,-10.42,1,-73.7183483,5.17241133,0.1,SUESCA,-7.40503,-37.64127,-45.0463,0.71065547024952,0.604648322147651
232,209 IV A 065,Apogeo 2,Pozo somero,1/01/1998,2547.413451,-74.5,-10.51,1,-74.17417952,4.600353684,90,BOGOTÁ D.C.,-13.02736,-81.79475,-94.82211,1.2395204567079,1.27278
233,209 IV A 065,Santillana 1,Pozo profundo,1/01/1998,2583,-74.6,-10.58,1,-74.33090235,4.764707879,359,FACATATIVÁ,-8.02118,-52.90937,-60.93055,0.758145557655955,0.816763404825737
234,209 III D 179,HILAT No 2 - CIUDAD BOLIVAR- (TUNJUELO),Pozo profundo,11/03/2010,2555.963392,-74.8,-10.61,11,-74.15806544,4.594540975,147,BOGOTÁ D.C.,-13.15559,-81.71105,-94.86665,1.23992365692743,1.26827072192513
235,227 IV A 125,SERVICENTRO EL RADAR - ENGATIVA- (SALITRE),Aljibe,11/16/2010,2546.15618,-74.9,-10.76,11,-74.13613958,4.705049715,5,BOGOTÁ D.C.,-5.74045,-27.18047,-32.92092,0.53349907063197,0.439531642189586
236,209 III D 179,Las Palmas 3,Pozo profundo,1/01/1998,2586,-75,-10.39,1,-73.91276281,5.001580035,140,TOCANCIPÁ,-8.61089,-49.20698,-57.81786,0.82876708373436,0.7709048
237,227 IV A 125,IMAL - FONTIBON- (FUCHA),Pozo profundo,10/28/2010,2546.019433,-75,-10.68,10,-74.15784235,4.693698489,483,BOGOTÁ D.C.,-6.71055,-37.79079,-44.50135,0.628328651685393,0.593351333333333
238,227 IV A 442,Poco 2,Pozo profundo,1/01/1998,2573,-75.1,-10.94,1,-74.30420824,4.753693782,140,MADRID,-5.93455,-33.55803,-39.49258,0.542463436928702,0.525866577896138
239,209 II D 050,Fute 2,Pozo profundo,1/01/1998,2604,-75.2,-10.46,1,-74.27415812,4.632707219,220,MOSQUERA,-9.52376,-56.5163,-66.04005,0.910493307839388,0.878192154255319
240,pz 19 0021,San Marino,Pozo profundo,1/01/1998,2574,-75.3,-10.99,1,-74.30736041,4.745554038,183,MADRID,-9.17644,-53.77821,-62.95465,0.834980891719745,0.836051128818061
241,pz 06 0003,Apogeo 1,Pozo profundo,1/01/1998,2548.154129,-75.4,-10.64,1,-74.17253912,4.598726147,150,BOGOTÁ D.C.,-13.11544,-81.49303,-94.60847,1.23265413533835,1.25475424403183
242,pz 08 0007,tndumil a.r,Pozo profundo,1/01/1998,2594,-75.4,-10.54,1,-74.26763742,4.512074474,157,SIBATÉ,-11.95205,-72.30899,-84.26104,1.13397058823529,1.11752042440318
243,227 IV A 299,Juanambú 2,Pozo profundo,1/01/1998,2588,-75.5,-9.87,1,-74.34504051,4.752232265,202,BOJACÁ,-8.02118,-52.90937,-60.93055,0.812682877406282,0.807027152317881
244,pz 06 0009,CARBOQUIMICA No 2 - BOSA- (TUNJUELO),Pozo profundo,11/04/2010,2557.876444,-75.6,-10.63,11,-74.16811451,4.600833766,120,BOGOTÁ D.C.,-13.11544,-81.49303,-94.60847,1.23381373471308,1.25143478835979
245,227 IV A 299,MARY OSORIO DE MORALES - CIUDAD BOLIVAR- (TUNJUELO),Aljibe,11/08/2010,2570.414389,-75.8,-10.06,11,-74.1469776,4.561444361,3,BOGOTÁ D.C.,-12.4834,-77.50526,-89.98866,1.24089463220676,1.18718548812665
246,227 IV A 233,La Esperanza,Pozo somero,1/01/1998,2584,-76.1,-10.22,1,-74.06578731,4.897696356,62,CHÍA,-9.17058,-52.01292,-61.18351,0.897317025440313,0.803988304862024
247,227 II C 200,JARDINES DEL APOGEO No 1 - BOSA- (TUNJUELO),Pozo somero,11/04/2010,2548.09542,-76.2,-10.78,11,-74.17231379,4.598527229,60.6,BOGOTÁ D.C.,-13.11544,-81.49303,-94.60847,1.21664564007421,1.24158097112861
248,227 II C 321,San Ignacio,Pozo somero,1/01/1998,2588,-76.3,-10.37,1,-73.91114181,4.993260096,70,TOCANCIPÁ,-8.46549,-48.60995,-57.07545,0.816344262295082,0.74803997378768
249,aj 05 0001,Tulipán,Pozo somero,1/01/1998,2581,-76.3,-10.9,1,-74.19460345,4.779493812,80,TENJO,-7.34164,-42.18979,-49.53143,0.67354495412844,0.649166841415465
250,227 II C 200,PETCO - CIUDAD BOLIVAR- (TUNJUELO),Pozo profundo,11/03/2010,2563.342751,-76.5,-10.83,11,-74.12816302,4.581955718,115,BOGOTÁ D.C.,-12.5711,-77.86491,-90.43601,1.16076638965836,1.18217006535948
251,209 III D 036,industria militar,Pozo profundo,1/01/1998,2561.908248,-76.7,-10.41,1,-74.23953969,4.584245132,170,SOACHA,-10.90707,-65.05412,-75.9612,1.0477492795389,0.990367666232073
252,227 IV A 128,Chitasugá 1,Pozo profundo,1/01/1998,2603,-77.4,-10.91,1,-74.15934105,4.866854729,1000,TENJO,-9.42174,-54.21799,-63.63973,0.863587534372136,0.822218733850129
253,227 IV B 456,Tutuaba,Pozo profundo,1/01/1998,2621,-77.7,-10.77,1,-74.15597869,4.870291482,142,TENJO,-9.41824,-54.22149,-63.63973,0.874488393686165,0.819044144144144
254,209 III D 036,SUDEIM - BOSA- (TUNJUELO),Pozo profundo,10/31/2017,2621,-77.7,-10.77,10,-74.15597869,4.870291482,142,BOGOTÁ D.C.,-9.41824,-54.22149,-63.63973,0.874488393686165,0.819044144144144
255,227 IV A 128,Sausallto,Pozo profundo,1/01/1998,2610,-77.9,-10.8,1,-74.13872381,4.878522434,220,TENJO,-9.41824,-54.22149,-63.63973,0.872059259259259,0.816941335044929
256,209 II D 095,Los Puentes,Pozo profundo,1/01/1998,2588,-78.2,-10.77,1,-74.25963378,4.681634014,200,MOSQUERA,-7.09007,-42.62901,-49.71908,0.658316620241411,0.635793861892583
257,227 IV D 049,Peque±itas y Peque±itos de Jesus - SUBA- (TORCA),Aljibe,11/08/2010,2551.341707,-78.3,-11.35,11,-74.09400351,4.756371449,2,BOGOTÁ D.C.,-9.17644,-53.77821,-62.95465,0.808496916299559,0.804018518518519
258,227 IV D 049,Canta Claro,Pozo profundo,1/01/1998,2566,-78.7,-10.91,1,-74.19021826,4.697564444,554,MOSQUERA,-6.71055,-37.79079,-44.50135,0.615082493125573,0.565455527318933
259,227 IV A 427,PAVCO - CIUDAD BOLIVAR- (TUNJUELO),Pozo profundo,11/04/2010,2559.82756,-81.3,-11.41,11,-74.16701414,4.593572296,437,BOGOTÁ D.C.,-12.25823,-75.00889,-87.26712,1.07434092900964,1.0733963099631
260,227 IV A 427,CARBOQUIMICA No 4 - BOSA- (TUNJUELO),Pozo profundo,11/04/2010,2558.001729,-81.5,-11.21,11,-74.16761872,4.599730571,330,BOGOTÁ D.C.,-13.11544,-81.49303,-94.60847,1.16997680642284,1.16084012269939
261,pz 19 0017,LA MANSION DEL DUENDE - CANDELARIA- (FUCHA),Aljibe,11/09/2010,2610.202921,-81.7,-11.34,11,-74.07293885,4.598913335,8,BOGOTÁ D.C.,-11.16915,-64.76559,-75.93475,0.984933862433862,0.929433904528764
262,aj 10 0020,Inmacú,Pozo somero,1/01/1998,2559.664424,-82.7,-11.22,1,-74.16983476,4.592758057,68,BOGOTÁ D.C.,-11.91003,-75.35709,-87.26712,1.0615,1.05522515114873
263,209 III D 047,Hacienda La Ramada,Pozo somero,1/01/1998,2593,-89,-12.66,1,-73.8901041,5.09046609,97,NEMOCÓN,-8.67769,-47.96189,-56.63957,0.685441548183254,0.636399662921348
264,pz 09 0031,SIBATÉ pz 09 0031,Pozo profundo,10/31/2017,2588,-69.8,-9.67,10,-74.25372138,4.53572566,450,SIBATÉ,-11.93885,-72.32219,-84.26104,1.23462771458118,1.2071782234957
265,209 III D 047,SIBATÉ 209 III D 047,Pozo profundo,10/31/2017,2583.584295,-72.5,-10.07,10,-74.25038797,4.538710684,450,SIBATÉ,-11.93885,-70.00423,-81.94308,1.18558589870904,1.13024937931034
266,227 IV A 112,SIBATÉ 227 IV A 112,Pozo profundo,10/31/2017,2594,-75.4,-10.54,10,-74.26763742,4.512074474,157,SIBATÉ,-11.95205,-72.30899,-84.26104,1.13397058823529,1.11752042440318
267,227 IV B 1I6,SOACHA 227 IV B 1I6,Pozo profundo,11/05/2010,2554.282653,-72.7,-10.5,11,-74.14703392,4.584820797,228,SOACHA,-12.5711,-77.86491,-90.43601,1.19724761904762,1.24396162310867
268,227 IV A 112,SOACHA 227 IV A 112,Pozo profundo,1/01/2001,2553.390874,-60.76,-10.67,1,-74.23800355,4.56561673,356.7,SOACHA,-11.04717,-65.15488,-76.20206,1.03534864104967,1.25414845292956
269,227 IV C 109,SOACHA 227 IV C 109,Pozo somero,10/31/2017,2596,-69.2,-9.75,10,-74.0917074,4.874726998,71.5,SOACHA,-9.17058,-52.01292,-61.18351,0.940572307692308,0.884154768786127
270,227 IV C 109,SOACHA 227 IV C 109,Pozo profundo,1/01/1999,2561.908248,-70.1,-9.77,1,-74.23953969,4.584245132,170,SOACHA,-10.90707,-65.05412,-75.9612,1.11638382804504,1.0836119828816
271,227 IV A 169,SOACHA 227 IV A 169,Pozo profundo,10/31/2017,2566,-76.7,-10.91,10,-74.19021826,4.697564444,554,SOACHA,-6.71055,-37.79079,-44.50135,0.615082493125573,0.580200130378096
272,227 IV A 169,SOACHA 227 IV A 169,Pozo profundo,1/01/2000,2429,-76.7,-10.41,1,-74.28855767,4.564066317,154,SOACHA,-11.64787,-69.38347,-81.03134,1.118911623439,1.05647118644068
273,227 IV A X6,SOPÓ 227 IV A X6,Pozo somero,10/31/2017,2583,-64.9,-9.27,10,-73.96165352,4.902117505,70,SOPÓ,-9.39244,-54.07075,-63.46319,1.01320819848975,0.977861171032357
274,227 IV D 050,SOPÓ 227 IV D 050,Pozo profundo,1/01/2001,2582,-70.03,-11,1,-73.95804599,4.908718268,112,SOPÓ,-9.39244,-57.26645,-66.65889,0.853858181818182,0.951861916321576
275,246 II A 304,SOPÓ 246 II A 304,Pozo somero,10/31/2017,2591,-70.5,-9.93,10,-74.13313204,4.852931125,90,SOPÓ,-9.1483,-54.09438,-63.24267,0.921278952668681,0.89705914893617
276,227 II D 187,SOPÓ 227 II D 187,Pozo profundo,10/31/2017,2645,-68.9,-9.24,10,-74.20120311,4.885657817,175,SOPÓ,-9.41824,-54.22149,-63.63973,1.01929004329004,0.923653555878084
277,227 IV D 050,SOPÓ 227 IV D 050,Pozo profundo,10/31/2017,2582,-73.3,-10.67,10,-73.94163418,4.922189204,146.5,SOPÓ,-9.41959,-55.24588,-64.66547,0.8828106841612,0.882202864938608
278,246 II A 304,SOPÓ 246 II A 304,Pozo profundo,10/31/2017,2579,-70.6,-10.08,10,-74.22173493,4.772525501,279,SOPÓ,-7.95436,-50.02508,-57.97944,0.789123015873016,0.821238526912181
279,227 IV A 094,SUBACHOQUE 227 IV A 094,Manantial,1/01/1999,3033,-67.75,-9.865,1,-74.20266083,4.966954149,0.1,SUBACHOQUE,-7.72125,-46.07544,-53.79669,0.782691332995438,0.794047084870849
280,227 IV A 094,SUBACHOQUE 227 IV A 094,Manantial,10/31/2017,3033,-67.75,-9.865,10,-74.20266083,4.966954149,0.1,SUBACHOQUE,-7.72125,-46.07544,-53.79669,0.782691332995438,0.794047084870849
281,pz 07 0005,SUBACHOQUE pz 07 0005,Manantial,1/01/1999,2975,-71.95,-10.56,1,-74.11808579,5.004945398,0.1,SUBACHOQUE,-7.04543,-37.12637,-44.1718,0.667180871212121,0.613923558026407
282,aj 19 0025,SUBACHOQUE aj 19 0025,Manantial,10/31/2017,2975,-71.95,-10.56,10,-74.11808579,5.004945398,0.1,SUBACHOQUE,-7.04543,-37.12637,-44.1718,0.667180871212121,0.613923558026407
283,228 I A 138,SUBACHOQUE 228 I A 138,Manantial,1/01/1999,3209,-71.65,-10.44,1,-74.17669375,4.975097263,0.1,SUBACHOQUE,-7.6952,-46.27347,-53.96867,0.737088122605364,0.753226378227495
284,pz 07 0007,SUBACHOQUE pz 07 0007,Manantial,1/01/1999,3359,-62.1,-9.305,1,-74.16137184,5.028543491,0.1,SUBACHOQUE,-7.1886,-42.99944,-50.18803,0.772552391187534,0.808180837359098
285,209 III D 055,SUBACHOQUE 209 III D 055,Manantial,1/01/1999,3416,-63.5,-9.57,1,-74.15686351,5.03252297,0.1,SUBACHOQUE,-7.67915,-49.86153,-57.54068,0.802419017763845,0.906152440944882
286,227 II D 733,SUBACHOQUE 227 II D 733,Manantial,1/01/1999,2639,-68.25,-9.5,1,-74.19741755,4.891355604,0.1,SUBACHOQUE,-9.41824,-54.22149,-63.63973,0.991393684210526,0.932450256410256
287,227 IV A 112,SUBACHOQUE 227 IV A 112,Manantial,1/01/1999,3021,-71.35,-10.275,1,-74.1552689,4.891452252,0.1,SUBACHOQUE,-7.8591,-45.29735,-53.15645,0.764875912408759,0.745009810791871
288,227 II D 733,SUBACHOQUE 227 II D 733,Manantial,1/01/1999,2956,-72.5,-10.365,1,-74.11718041,4.943995568,0.1,SUBACHOQUE,-7.10851,-38.91399,-46.0225,0.68581862035697,0.634793103448276
289,pz 19 0024,SUESCA pz 19 0024,Manantial,1/01/1999,2983,-73.5,-10.23,1,-73.78970856,5.136728493,0.1,SUESCA,-7.70185,-40.45833,-48.16018,0.752869012707722,0.655240544217687
290,246 II A 189,SUESCA 246 II A 189,Manantial,10/31/2017,2983,-73.5,-10.23,10,-73.78970856,5.136728493,0.1,SUESCA,-7.70185,-40.45833,-48.16018,0.752869012707722,0.655240544217687
291,209 IV A 900,SUESCA 209 IV A 900,Manantial,1/01/1999,2676,-76.7,-10.8,1,-73.75590076,5.109764721,0.1,SUESCA,-7.76263,-39.7547,-47.51733,0.718762037037037,0.619521903520209
292,228 I C 257,SUESCA 228 I C 257,Manantial,10/31/2017,2676,-76.7,-10.8,10,-73.75590076,5.109764721,0.1,SUESCA,-7.76263,-39.7547,-47.51733,0.718762037037037,0.619521903520209
293,246 II A 303,TABIO 246 II A 303,Manantial,10/31/2017,2627,-69.8,-9.98,10,-74.10572867,4.924644087,0.1,TABIO,-9.10073,-53.30392,-62.40466,0.911896793587174,0.894049570200573
294,209 IV A 900,TENJO 209 IV A 900,Manantial,1/01/1999,2893.995878,-76.8,-10.995,1,-74.15391538,4.881233787,0.1,TENJO,-7.29086,-38.45446,-45.74532,0.663106866757617,0.5956421875
295,227 IV B 554,TENJO 227 IV B 554,Manantial,10/31/2017,2893.995878,-76.8,-10.995,10,-74.15391538,4.881233787,0.1,TENJO,-7.29086,-38.45446,-45.74532,0.663106866757617,0.5956421875
296,246 II A 189,TENJO 246 II A 189,Aljibe,11/09/2010,2546.776558,-77.7,-9.33,11,-74.18915898,4.61031698,8,TENJO,-11.56954,-71.73469,-83.30423,1.24003644158628,1.07212651222651
297,227 II B 038,TENJO 227 II B 038,Pozo profundo,1/01/2000,2610,-62.7,-11.22,1,-74.13872381,4.878522434,220,TENJO,-9.41824,-54.22149,-63.63973,0.839415329768271,1.01498771929825
298,227 II B 038,TENJO 227 II B 038,Pozo profundo,10/31/2017,2610,-77.9,-10.8,10,-74.13872381,4.878522434,220,TENJO,-9.41824,-54.22149,-63.63973,0.872059259259259,0.816941335044929
299,227 II D 021,TENJO 227 II D 021,Pozo profundo,10/31/2017,2553.390874,-69.2,-9.82,10,-74.23800355,4.56561673,356.7,TENJO,-11.04717,-65.15488,-76.20206,1.12496639511202,1.10118583815029
300,227 II D 021,TENJO 227 II D 021,Aljibe,1/01/1999,2602,-58.5,-8.34,1,-74.0993262,4.895073624,8,TENJO,-9.17058,-52.01292,-61.18351,1.09958992805755,1.04587196581197
301,227 II B 046,TENJO 227 II B 046,Pozo somero,10/31/2017,2602,-60.9,-8.08,10,-74.10302248,4.889738103,80,TENJO,-9.17058,-52.01292,-61.18351,1.13497277227723,1.00465533661741
302,aj 07 0034,TENJO aj 07 0034,Pozo profundo,10/31/2017,2603,-77.4,-10.91,10,-74.15934105,4.866854729,1000,TENJO,-9.42174,-54.21799,-63.63973,0.863587534372136,0.822218733850129
303,227 II B 046,TENJO 227 II B 046,Pozo somero,1/01/2000,2587,-75.4,-10.54,1,-74.16562019,4.831224378,90,TENJO,-8.71839,-53.29692,-62.01531,0.827171726755218,0.822484217506631
304,227 II B 089,TENJO 227 II B 089,Pozo profundo,1/01/1999,2566,-72.6,-10.72,1,-74.19021826,4.697564444,554,TENJO,-6.71055,-37.79079,-44.50135,0.625984141791045,0.612966253443526
305,227 II B 089,TENJO 227 II B 089,Pozo somero,10/31/2017,2581,-76.3,-10.9,10,-74.19460345,4.779493812,80,TENJO,-7.34164,-42.18979,-49.53143,0.67354495412844,0.649166841415465
306,227 IV C 011,TENJO 227 IV C 011,Aljibe,1/01/1999,2587,-68.2,-10.255,1,-74.13231827,4.823179575,8,TENJO,-8.47074,-50.3288,-58.79953,0.82601072647489,0.862163196480938
307,227 IV C 011,TENJO 227 IV C 011,Pozo somero,10/31/2017,2581,-70.7,-9.63,10,-74.04306682,4.908185487,93,TENJO,-9.17058,-52.01292,-61.18351,0.952292834890966,0.865396181046676
308,aj 11 0201,TENJO aj 11 0201,Manantial,1/01/1999,2751,-66.85,-10.355,1,-74.11816514,4.826526498,0.1,TENJO,-8.55529,-52.07504,-60.63033,0.826198937711251,0.906960807778609
309,227 II D 587,TENJO 227 II D 587,Manantial,10/31/2017,2751,-69.85,-10.355,10,-74.11816514,4.826526498,0.1,TENJO,-8.55529,-52.07504,-60.63033,0.826198937711251,0.868007587687903
310,227 IV B 554,TENJO 227 IV B 554,Pozo profundo,10/31/2017,2871,-70.5,-9.77,10,-74.03052818,4.999067019,188,TENJO,-7.53908,-40.98298,-48.52206,0.771656090071648,0.688256170212766
311,pz 19 0015,TOCANCIPÁ pz 19 0015,Pozo profundo,10/31/2017,2586,-75,-10.39,10,-73.91276281,5.001580035,140,TOCANCIPÁ,-8.61089,-49.20698,-57.81786,0.82876708373436,0.7709048
312,pz 07 0033,TOCANCIPÁ pz 07 0033,Pozo profundo,1/01/2001,2584,-70.7,-10.78,1,-73.93504263,4.967854937,253,TOCANCIPÁ,-9.32259,-55.34287,-64.66547,0.86480426716141,0.914645968882603
313,aj 17 0002,TOCANCIPÁ aj 17 0002,Pozo profundo,10/31/2017,2595,-73.6,-10.22,10,-73.92331936,4.974182388,104,TOCANCIPÁ,-9.32259,-55.34287,-64.66547,0.912190802348336,0.878606929347826
314,246 II B 018,VILLAPINZÓN 246 II B 018,Manantial,1/01/1999,2788,-71.2,-9.78,1,-73.63191644,5.209250603,0.1,VILLAPINZÓN,-7.0472,-35.43819,-42.48539,0.720572597137014,0.596704915730337
315,pz 11 0010,VILLAPINZÓN pz 11 0010,Manantial,10/31/2017,2788,-71.2,-9.78,10,-73.63191644,5.209250603,0.1,VILLAPINZÓN,-7.0472,-35.43819,-42.48539,0.720572597137014,0.596704915730337
316,209 III B 077,ZIPAQUIRÁ 209 III B 077,Pozo somero,1/01/1999,2600,-71.3,-9.84,1,-73.96866448,5.032880429,68,ZIPAQUIRÁ,-8.61089,-49.20698,-57.81786,0.875090447154471,0.810909677419355
317,209 III B 077,ZIPAQUIRÁ 209 III B 077,Pozo somero,10/31/2017,2667,-70.5,-9.92,10,-73.98915089,4.910622144,83,ZIPAQUIRÁ,-9.55089,-55.8305,-65.38139,0.962791330645161,0.927395602836879
318,PZ-227-IV-D-103 (140m),PZ-227-IV-D-103 (140m),Pozo profundo,2022/11/29,2560,-60.7,-9.1,11,-74.0809343,4.6397247,140,BOGOTÁ D.C.,-7.50192,-40.80321,-48.30513,0.824386813186813,0.795801153212521
319,PZ-227-IV-D-103 (140m),PZ-227-IV-D-103 (140m),Pozo profundo,2023/01/31,2560,-60.6,-8.93,1,-74.0809343,4.6397247,140,BOGOTÁ D.C.,-7.50192,-40.80321,-48.30513,0.840080627099664,0.797114356435644
320,PZ-227-IV-D-103 (140m),PZ-227-IV-D-103 (140m),Pozo profundo,2023/02/28,2560,-59.7,-8.83,2,-74.0809343,4.6397247,140,BOGOTÁ D.C.,-7.50192,-40.80321,-48.30513,0.84959456398641,0.809131155778894
321,PZ-227-IV-D-103 (140m),PZ-227-IV-D-103 (140m),Pozo profundo,2023/03/25,2560,-61.3,-9.11,3,-74.0809343,4.6397247,140,BOGOTÁ D.C.,-7.50192,-40.80321,-48.30513,0.823481888035126,0.788011908646003
322,Pozo 227-IV-D-103 (250m),Pozo 227-IV-D-103 (250m),Pozo profundo,2022/11/29,2560,-63.1,-9.42,11,-74.0809122,4.6398148,250,BOGOTÁ D.C.,-7.50192,-40.80321,-48.30513,0.796382165605096,0.765532963549921
323,Pozo 227-IV-D-103 (250m),Pozo 227-IV-D-103 (250m),Pozo profundo,2023/01/31,2560,-63.2,-9.22,1,-74.0809122,4.6398148,250,BOGOTÁ D.C.,-7.50192,-40.80321,-48.30513,0.81365726681128,0.76432167721519
324,Pozo 227-IV-D-103 (250m),Pozo 227-IV-D-103 (250m),Pozo profundo,2023/02/28,2560,-62.5,-9.17,2,-74.0809122,4.6398148,250,BOGOTÁ D.C.,-7.50192,-40.80321,-48.30513,0.818093784078517,0.77288208
325,Pozo 227-IV-D-103 (250m),Pozo 227-IV-D-103 (250m),Pozo profundo,2023/02/28,2560,-62.6,-9.19,2,-74.0809122,4.6398148,250,BOGOTÁ D.C.,-7.50192,-40.80321,-48.30513,0.816313384113167,0.771647444089457
326,Pozo 227-IV-D-103 (250m),Pozo 227-IV-D-103 (250m),Pozo profundo,2023/03/26,2560,-63.7,-9.26,3,-74.0809122,4.6398148,250,BOGOTÁ D.C.,-7.50192,-40.80321,-48.30513,0.810142548596112,0.75832229199372
327,Genetica (30m),Genetica (30m),Pozo somero,2022/11/29,2560,-61.7,-9.24,11,-74.0822335,4.6427655,30,BOGOTÁ D.C.,-7.50192,-40.80321,-48.30513,0.811896103896104,0.782903241491086
328,Genetica (30m),Genetica (30m),Pozo somero,2023/01/31,2560,-60.8,-8.99,1,-74.0822335,4.6427655,30,BOGOTÁ D.C.,-7.50192,-40.80321,-48.30513,0.834473859844271,0.794492269736842
329,Genetica (30m),Genetica (30m),Pozo somero,2023/02/28,2560,-61.1,-9.08,2,-74.0822335,4.6427655,30,BOGOTÁ D.C.,-7.50192,-40.80321,-48.30513,0.826202643171806,0.790591325695581
330,Genetica (30m),Genetica (30m),Pozo somero,2023/03/27,2560,-61.4,-8.97,3,-74.0822335,4.6427655,30,BOGOTÁ D.C.,-7.50192,-40.80321,-48.30513,0.836334448160535,0.786728501628664
331,Hidraulica3 (7m),Hidraulica3 (7m),Pozo somero,2022/11/29,2560,-77.7,-10.87,11,-74.0814461,4.6388263,7,BOGOTÁ D.C.,-7.50192,-40.80321,-48.30513,0.690149034038638,0.621687644787645
332,Hidraulica3 (7m),Hidraulica3 (7m),Pozo somero,2023/01/31,2560,-70.2,-9.84,1,-74.0814461,4.6388263,7,BOGOTÁ D.C.,-7.50192,-40.80321,-48.30513,0.762390243902439,0.688107264957265
333,Hidraulica3 (7m),Hidraulica3 (7m),Pozo somero,2023/02/28,2560,-67.1,-9.61,2,-74.0814461,4.6388263,7,BOGOTÁ D.C.,-7.50192,-40.80321,-48.30513,0.780636836628512,0.719897615499255
334,Hidraulica3 (7m),Hidraulica3 (7m),Pozo somero,2023/03/28,2560,-68.4,-9.59,3,-74.0814461,4.6388263,7,BOGOTÁ D.C.,-7.50192,-40.80321,-48.30513,0.782264859228363,0.706215350877193
